{
  "type": "FeatureCollection",
  "features": [
    {
      "type": "Feature",
      "geometry": {
        "type": "Point",
        "coordinates": [
          139.400961,
          35.679775
        ]
      },
      "properties": {
        "name": "日野第一中学校（校庭）",
        "tel": "(042)581-0009",
        "address": "東京都日野市日野本町7-7-7",
        "desc": "【災害種別】<br>崖崩れ、土石流及び地滑り、地震、大規模な火事、火山現象、指定避難所との重複"
      }
    },
    {
      "type": "Feature",
      "geometry": {
        "type": "Point",
        "coordinates": [
          139.39886,
          35.676876
        ]
      },
      "properties": {
        "name": "日野第一小学校（校庭）",
        "tel": "(042)581-0061",
        "address": "東京都日野市日野本町2-14-1",
        "desc": "【災害種別】<br>洪水、崖崩れ、土石流及び地滑り、地震、大規模な火事、火山現象、指定避難所との重複"
      }
    },
    {
      "type": "Feature",
      "geometry": {
        "type": "Point",
        "coordinates": [
          139.417216,
          35.677371
        ]
      },
      "properties": {
        "name": "日野第四小学校（校庭）",
        "tel": "(042)581-0038",
        "address": "東京都日野市石田430",
        "desc": "【災害種別】<br>崖崩れ、土石流及び地滑り、地震、大規模な火事、火山現象、指定避難所との重複"
      }
    },
    {
      "type": "Feature",
      "geometry": {
        "type": "Point",
        "coordinates": [
          139.402348,
          35.682342
        ]
      },
      "properties": {
        "name": "仲田小学校（校庭）",
        "tel": "(042)581-8511",
        "address": "東京都日野市日野本町6-1-74",
        "desc": "【災害種別】<br>崖崩れ、土石流及び地滑り、地震、大規模な火事、火山現象、指定避難所との重複"
      }
    },
    {
      "type": "Feature",
      "geometry": {
        "type": "Point",
        "coordinates": [
          139.402394,
          35.680126
        ]
      },
      "properties": {
        "name": "市民の森スポーツ公園",
        "tel": "(042)585-1111",
        "address": "東京都日野市日野本町7-12-1",
        "desc": "【災害種別】<br>崖崩れ、土石流及び地滑り、地震、大規模な火事、火山現象"
      }
    },
    {
      "type": "Feature",
      "geometry": {
        "type": "Point",
        "coordinates": [
          139.413145,
          35.668078
        ]
      },
      "properties": {
        "name": "浅川スポーツ公園",
        "tel": "(042)585-1111",
        "address": "東京都日野市万願寺5-3-7",
        "desc": "【災害種別】<br>崖崩れ、土石流及び地滑り、地震、大規模な火事、火山現象"
      }
    },
    {
      "type": "Feature",
      "geometry": {
        "type": "Point",
        "coordinates": [
          139.41389,
          35.670779
        ]
      },
      "properties": {
        "name": "万願寺中央公園",
        "tel": "(042)585-1111",
        "address": "東京都日野市万願寺4-20-12",
        "desc": "【災害種別】<br>崖崩れ、土石流及び地滑り、地震、大規模な火事、火山現象"
      }
    },
    {
      "type": "Feature",
      "geometry": {
        "type": "Point",
        "coordinates": [
          139.425833,
          35.666696
        ]
      },
      "properties": {
        "name": "都立日野高等学校（校庭一部）",
        "tel": "(042)581-7123",
        "address": "東京都日野市石田1-190-1",
        "desc": "【災害種別】<br>崖崩れ、土石流及び地滑り、地震、大規模な火事、火山現象"
      }
    },
    {
      "type": "Feature",
      "geometry": {
        "type": "Point",
        "coordinates": [
          139.40258,
          35.665831
        ]
      },
      "properties": {
        "name": "駒形公園",
        "tel": "(042)585-1111",
        "address": "東京都日野市川辺堀之内先",
        "desc": "【災害種別】<br>崖崩れ、土石流及び地滑り、地震、大規模な火事、火山現象"
      }
    },
    {
      "type": "Feature",
      "geometry": {
        "type": "Point",
        "coordinates": [
          139.425968,
          35.669187
        ]
      },
      "properties": {
        "name": "北川原公園",
        "tel": "(042)585-1111",
        "address": "東京都国立市石田1-236",
        "desc": "【災害種別】<br>崖崩れ、土石流及び地滑り、地震、大規模な火事、火山現象"
      }
    },
    {
      "type": "Feature",
      "geometry": {
        "type": "Point",
        "coordinates": [
          139.425658,
          35.664852
        ]
      },
      "properties": {
        "name": "日野第二中学校（校庭）",
        "tel": "(042)581-0056",
        "address": "東京都日野市多摩平4-5-2",
        "desc": "【災害種別】<br>洪水、崖崩れ、土石流及び地滑り、地震、大規模な火事、火山現象、指定避難所との重複"
      }
    },
    {
      "type": "Feature",
      "geometry": {
        "type": "Point",
        "coordinates": [
          139.389637,
          35.660495
        ]
      },
      "properties": {
        "name": "豊田小学校（校庭）",
        "tel": "(042)581-0070",
        "address": "東京都日野市東豊田2-14-1",
        "desc": "【災害種別】<br>洪水、崖崩れ、土石流及び地滑り、地震、大規模な火事、火山現象、指定避難所との重複"
      }
    },
    {
      "type": "Feature",
      "geometry": {
        "type": "Point",
        "coordinates": [
          139.382963,
          35.669777
        ]
      },
      "properties": {
        "name": "日野第五小学校（校庭）",
        "tel": "(042)581-0407",
        "address": "東京都日野市多摩平6-21-1",
        "desc": "【災害種別】<br>洪水、崖崩れ、土石流及び地滑り、地震、大規模な火事、火山現象、指定避難所との重複"
      }
    },
    {
      "type": "Feature",
      "geometry": {
        "type": "Point",
        "coordinates": [
          139.384376,
          35.667402
        ]
      },
      "properties": {
        "name": "多摩平の森",
        "tel": "(042)585-1111",
        "address": "東京都日野市多摩平4-10",
        "desc": "【災害種別】<br>洪水、崖崩れ、土石流及び地滑り、地震、大規模な火事、火山現象"
      }
    },
    {
      "type": "Feature",
      "geometry": {
        "type": "Point",
        "coordinates": [
          139.379631,
          35.666566
        ]
      },
      "properties": {
        "name": "多摩平第一公園",
        "tel": "(042)585-1111",
        "address": "東京都日野市多摩平4-2",
        "desc": "【災害種別】<br>洪水、崖崩れ、土石流及び地滑り、地震、大規模な火事、火山現象"
      }
    },
    {
      "type": "Feature",
      "geometry": {
        "type": "Point",
        "coordinates": [
          139.375895,
          35.667784
        ]
      },
      "properties": {
        "name": "コニカミノルタ日野グラウンド",
        "tel": "(042)589-8112",
        "address": "東京都日野市さくら町1",
        "desc": "【災害種別】<br>所在地_番地以下、洪水、崖崩れ、土石流及び地滑り、地震、大規模な火事、火山現象"
      }
    },
    {
      "type": "Feature",
      "geometry": {
        "type": "Point",
        "coordinates": [
          139.393724,
          35.658619
        ]
      },
      "properties": {
        "name": "七生中学校（校庭）",
        "tel": "(042)691-0174",
        "address": "東京都日野市南平6-7-1",
        "desc": "【災害種別】<br>崖崩れ、土石流及び地滑り、地震、大規模な火事、火山現象、指定避難所との重複"
      }
    },
    {
      "type": "Feature",
      "geometry": {
        "type": "Point",
        "coordinates": [
          139.399047,
          35.66019
        ]
      },
      "properties": {
        "name": "南平小学校（校庭）",
        "tel": "(042)592-2021",
        "address": "東京都日野市南平4-18-1",
        "desc": "【災害種別】<br>崖崩れ、土石流及び地滑り、地震、大規模な火事、火山現象、指定避難所との重複"
      }
    },
    {
      "type": "Feature",
      "geometry": {
        "type": "Point",
        "coordinates": [
          139.403861,
          35.657507
        ]
      },
      "properties": {
        "name": "かしまだい地区広場",
        "tel": "(042)585-1111",
        "address": "東京都日野市南平1-10-43",
        "desc": "【災害種別】<br>洪水、崖崩れ、土石流及び地滑り、地震、大規模な火事、火山現象"
      }
    },
    {
      "type": "Feature",
      "geometry": {
        "type": "Point",
        "coordinates": [
          139.400053,
          35.654808
        ]
      },
      "properties": {
        "name": "日本野鳥の会WING跡地",
        "tel": "(042)585-1111",
        "address": "東京都日野市南平2-35-2",
        "desc": "【災害種別】<br>洪水、崖崩れ、土石流及び地滑り、地震、大規模な火事、火山現象"
      }
    },
    {
      "type": "Feature",
      "geometry": {
        "type": "Point",
        "coordinates": [
          139.411259,
          35.648988
        ]
      },
      "properties": {
        "name": "日野第三中学校（校庭）",
        "tel": "(042)591-2228",
        "address": "東京都日野市程久保650",
        "desc": "【災害種別】<br>洪水、崖崩れ、土石流及び地滑り、地震、大規模な火事、火山現象、指定避難所との重複"
      }
    },
    {
      "type": "Feature",
      "geometry": {
        "type": "Point",
        "coordinates": [
          139.409923,
          35.652382
        ]
      },
      "properties": {
        "name": "夢が丘小学校（校庭）",
        "tel": "(042)591-7011",
        "address": "東京都日野市程久保1-14-2",
        "desc": "【災害種別】<br>洪水、崖崩れ、土石流及び地滑り、地震、大規模な火事、火山現象、指定避難所との重複"
      }
    },
    {
      "type": "Feature",
      "geometry": {
        "type": "Point",
        "coordinates": [
          139.411135,
          35.652024
        ]
      },
      "properties": {
        "name": "教育センター（グラウンド）",
        "tel": "(042)592-0505",
        "address": "東京都日野市程久保550",
        "desc": "【災害種別】<br>洪水、崖崩れ、土石流及び地滑り、地震、大規模な火事、火山現象"
      }
    },
    {
      "type": "Feature",
      "geometry": {
        "type": "Point",
        "coordinates": [
          139.407311,
          35.643471
        ]
      },
      "properties": {
        "name": "明星大学（校庭一部）",
        "tel": "(042)591-5111",
        "address": "東京都日野市程久保2-1-1",
        "desc": "【災害種別】<br>洪水、崖崩れ、土石流及び地滑り、地震、大規模な火事、火山現象"
      }
    },
    {
      "type": "Feature",
      "geometry": {
        "type": "Point",
        "coordinates": [
          139.41873,
          35.653559
        ]
      },
      "properties": {
        "name": "百草台コミュニティセンター（グラウンド）",
        "tel": "(042)594-5650",
        "address": "東京都日野市百草999",
        "desc": "【災害種別】<br>洪水、崖崩れ、土石流及び地滑り、地震、大規模な火事、火山現象"
      }
    },
    {
      "type": "Feature",
      "geometry": {
        "type": "Point",
        "coordinates": [
          139.369363,
          35.661166
        ]
      },
      "properties": {
        "name": "日野第四中学校（校庭）",
        "tel": "(042)583-3905",
        "address": "東京都日野市旭が丘2-42",
        "desc": "【災害種別】<br>洪水、崖崩れ、土石流及び地滑り、地震、大規模な火事、火山現象、指定避難所との重複"
      }
    },
    {
      "type": "Feature",
      "geometry": {
        "type": "Point",
        "coordinates": [
          139.37452,
          35.664384
        ]
      },
      "properties": {
        "name": "日野第六小学校（校庭）",
        "tel": "(042)581-4686",
        "address": "東京都日野市多摩平3-21",
        "desc": "【災害種別】<br>洪水、崖崩れ、土石流及び地滑り、地震、大規模な火事、火山現象、指定避難所との重複"
      }
    },
    {
      "type": "Feature",
      "geometry": {
        "type": "Point",
        "coordinates": [
          139.360164,
          35.658943
        ]
      },
      "properties": {
        "name": "旭が丘小学校（校庭）",
        "tel": "(042)583-3733",
        "address": "東京都日野市旭が丘5-21-1",
        "desc": "【災害種別】<br>洪水、崖崩れ、土石流及び地滑り、地震、大規模な火事、火山現象、指定避難所との重複"
      }
    },
    {
      "type": "Feature",
      "geometry": {
        "type": "Point",
        "coordinates": [
          139.366386,
          35.661018
        ]
      },
      "properties": {
        "name": "東京都立大学日野キャンパス（校庭一部）",
        "tel": "(042)585-8606",
        "address": "東京都日野市旭が丘6-6",
        "desc": "【災害種別】<br>洪水、崖崩れ、土石流及び地滑り、地震、大規模な火事、火山現象"
      }
    },
    {
      "type": "Feature",
      "geometry": {
        "type": "Point",
        "coordinates": [
          139.373431,
          35.656148
        ]
      },
      "properties": {
        "name": "旭が丘東公園",
        "tel": "(042)585-1111",
        "address": "東京都日野市旭が丘1-18-1",
        "desc": "【災害種別】<br>洪水、崖崩れ、土石流及び地滑り、地震、大規模な火事、火山現象"
      }
    },
    {
      "type": "Feature",
      "geometry": {
        "type": "Point",
        "coordinates": [
          139.422573,
          35.65991
        ]
      },
      "properties": {
        "name": "三沢中学校（校庭）",
        "tel": "(042)592-5017",
        "address": "東京都日野市三沢1-17-4",
        "desc": "【災害種別】<br>洪水、崖崩れ、土石流及び地滑り、地震、大規模な火事、火山現象、指定避難所との重複"
      }
    },
    {
      "type": "Feature",
      "geometry": {
        "type": "Point",
        "coordinates": [
          139.414042,
          35.664004
        ]
      },
      "properties": {
        "name": "潤徳小学校（校庭）",
        "tel": "(042)591-0409",
        "address": "東京都日野市高幡402",
        "desc": "【災害種別】<br>崖崩れ、土石流及び地滑り、地震、大規模な火事、火山現象、指定避難所との重複"
      }
    },
    {
      "type": "Feature",
      "geometry": {
        "type": "Point",
        "coordinates": [
          139.423566,
          35.660981
        ]
      },
      "properties": {
        "name": "日野第八小学校（校庭）",
        "tel": "(042)591-2411",
        "address": "東京都日野市三沢200",
        "desc": "【災害種別】<br>洪水、崖崩れ、土石流及び地滑り、地震、大規模な火事、火山現象、指定避難所との重複"
      }
    },
    {
      "type": "Feature",
      "geometry": {
        "type": "Point",
        "coordinates": [
          139.422514,
          35.653696
        ]
      },
      "properties": {
        "name": "七生緑小学校（校庭）",
        "tel": "(042)591-0998",
        "address": "東京都日野市百草896-1",
        "desc": "【災害種別】<br>洪水、崖崩れ、土石流及び地滑り、地震、大規模な火事、火山現象、指定避難所との重複"
      }
    },
    {
      "type": "Feature",
      "geometry": {
        "type": "Point",
        "coordinates": [
          139.410403,
          35.661906
        ]
      },
      "properties": {
        "name": "高幡不動尊（境内一部）",
        "tel": "(042)591-0032",
        "address": "東京都日野市高幡733",
        "desc": "【災害種別】<br>洪水、崖崩れ、土石流及び地滑り、地震、大規模な火事、火山現象"
      }
    },
    {
      "type": "Feature",
      "geometry": {
        "type": "Point",
        "coordinates": [
          139.422328,
          35.646947
        ]
      },
      "properties": {
        "name": "杉野学園グラウンド",
        "tel": "(042)591-3531",
        "address": "東京都日野市百草1006",
        "desc": "【災害種別】<br>洪水、崖崩れ、土石流及び地滑り、地震、大規模な火事、火山現象"
      }
    },
    {
      "type": "Feature",
      "geometry": {
        "type": "Point",
        "coordinates": [
          139.42473,
          35.648264
        ]
      },
      "properties": {
        "name": "帝京短期大学グラウンド",
        "tel": "(03)3379-0492",
        "address": "東京都日野市百草804-17外",
        "desc": "【災害種別】<br>洪水、崖崩れ、土石流及び地滑り、地震、大規模な火事、火山現象"
      }
    },
    {
      "type": "Feature",
      "geometry": {
        "type": "Point",
        "coordinates": [
          139.42467,
          35.648261
        ]
      },
      "properties": {
        "name": "帝京大学駐車場",
        "tel": "(03)3379-0492",
        "address": "東京都日野市百草804-17外",
        "desc": "【災害種別】<br>洪水、崖崩れ、土石流及び地滑り、地震、大規模な火事、火山現象"
      }
    },
    {
      "type": "Feature",
      "geometry": {
        "type": "Point",
        "coordinates": [
          139.423424,
          35.65187
        ]
      },
      "properties": {
        "name": "百草台自然公園",
        "tel": "(042)585-1111",
        "address": "東京都日野市百草914-85",
        "desc": "【災害種別】<br>洪水、崖崩れ、土石流及び地滑り、地震、大規模な火事、火山現象"
      }
    },
    {
      "type": "Feature",
      "geometry": {
        "type": "Point",
        "coordinates": [
          139.386536,
          35.673818
        ]
      },
      "properties": {
        "name": "大坂上中学校（校庭）",
        "tel": "(042)583-9756",
        "address": "東京都日野市大坂上4-17-1",
        "desc": "【災害種別】<br>洪水、崖崩れ、土石流及び地滑り、地震、大規模な火事、火山現象、指定避難所との重複"
      }
    },
    {
      "type": "Feature",
      "geometry": {
        "type": "Point",
        "coordinates": [
          139.384114,
          35.678589
        ]
      },
      "properties": {
        "name": "日野第三小学校（校庭）",
        "tel": "(042)581-0101",
        "address": "東京都日野市日野台2-1-1",
        "desc": "【災害種別】<br>洪水、崖崩れ、土石流及び地滑り、地震、大規模な火事、火山現象、指定避難所との重複"
      }
    },
    {
      "type": "Feature",
      "geometry": {
        "type": "Point",
        "coordinates": [
          139.392622,
          35.672391
        ]
      },
      "properties": {
        "name": "日野第七小学校（校庭）",
        "tel": "(042)583-3907",
        "address": "東京都日野市神明3-2",
        "desc": "【災害種別】<br>洪水、崖崩れ、土石流及び地滑り、地震、大規模な火事、火山現象、指定避難所との重複"
      }
    },
    {
      "type": "Feature",
      "geometry": {
        "type": "Point",
        "coordinates": [
          139.384463,
          35.681431
        ]
      },
      "properties": {
        "name": "東光寺小学校（校庭）",
        "tel": "(042)584-6200",
        "address": "東京都日野市新町3-24-1",
        "desc": "【災害種別】<br>洪水、崖崩れ、土石流及び地滑り、地震、大規模な火事、火山現象、指定避難所との重複"
      }
    },
    {
      "type": "Feature",
      "geometry": {
        "type": "Point",
        "coordinates": [
          139.394121,
          35.67062
        ]
      },
      "properties": {
        "name": "日野中央公園",
        "tel": "(042)585-1111",
        "address": "東京都日野市神明2-13-2",
        "desc": "【災害種別】<br>洪水、崖崩れ、土石流及び地滑り、地震、大規模な火事、火山現象"
      }
    },
    {
      "type": "Feature",
      "geometry": {
        "type": "Point",
        "coordinates": [
          139.389821,
          35.671087
        ]
      },
      "properties": {
        "name": "実践女子大（校庭一部）",
        "tel": "(042)585-8817",
        "address": "東京都日野市大坂上4-1-1",
        "desc": "【災害種別】<br>洪水、崖崩れ、土石流及び地滑り、地震、大規模な火事、火山現象"
      }
    },
    {
      "type": "Feature",
      "geometry": {
        "type": "Point",
        "coordinates": [
          139.377572,
          35.682093
        ]
      },
      "properties": {
        "name": "日野自動車（株）総合グラウンド",
        "tel": "(042)581-1540",
        "address": "東京都日野市新町5-18",
        "desc": "【災害種別】<br>洪水、崖崩れ、土石流及び地滑り、地震、大規模な火事、火山現象"
      }
    },
    {
      "type": "Feature",
      "geometry": {
        "type": "Point",
        "coordinates": [
          139.383006,
          35.686454
        ]
      },
      "properties": {
        "name": "東光寺グラウンド",
        "tel": "(042)585-1111",
        "address": "東京都日野市栄町3-15先",
        "desc": "【災害種別】<br>崖崩れ、土石流及び地滑り、地震、大規模な火事、火山現象"
      }
    },
    {
      "type": "Feature",
      "geometry": {
        "type": "Point",
        "coordinates": [
          139.385568,
          35.65159
        ]
      },
      "properties": {
        "name": "平山中学校（校庭）",
        "tel": "(042)593-3015",
        "address": "東京都日野市平山4-21-3",
        "desc": "【災害種別】<br>崖崩れ、土石流及び地滑り、地震、大規模な火事、火山現象、指定避難所との重複"
      }
    },
    {
      "type": "Feature",
      "geometry": {
        "type": "Point",
        "coordinates": [
          139.385476,
          35.64893
        ]
      },
      "properties": {
        "name": "平山小学校（校庭）",
        "tel": "(042)591-6381",
        "address": "東京都日野市平山4-8-6",
        "desc": "【災害種別】<br>洪水、崖崩れ、土石流及び地滑り、地震、大規模な火事、火山現象、指定避難所との重複"
      }
    },
    {
      "type": "Feature",
      "geometry": {
        "type": "Point",
        "coordinates": [
          139.372873,
          35.64515
        ]
      },
      "properties": {
        "name": "滝合小学校（校庭）",
        "tel": "(042)583-5172",
        "address": "東京都日野市西平山2-3-1",
        "desc": "【災害種別】<br>崖崩れ、土石流及び地滑り、地震、大規模な火事、火山現象、指定避難所との重複"
      }
    },
    {
      "type": "Feature",
      "geometry": {
        "type": "Point",
        "coordinates": [
          139.386997,
          35.64071
        ]
      },
      "properties": {
        "name": "平山台健康・市民支援センター（グラウンド）",
        "tel": "(042)585-1111",
        "address": "東京都日野市平山2-1-1",
        "desc": "【災害種別】<br>洪水、崖崩れ、土石流及び地滑り、地震、大規模な火事、火山現象"
      }
    }
  ]
}